{ 	"default_clinics":[
    {
	"title": "Telephone",
	"advisor": "maria",
	"day_of_week": "monday",
	"time_start": 1000,
	"time_end": 1330,
	"postcode": "",
	"address": [],
	"latitude": 0,
	"longitude": 0
    },
    {
	"title": "Grove Medical Centre GP",
	"advisor": "shireen",
	"day_of_week": "monday",
	"time_start": 1300,
	"time_end": 1400,
	"postcode": "SE8 3QH",
	"address": ["Windlass Place"],
	"latitude": 51.48995,
	"longitude": -0.03526
    },
    {
	"title": "Catford Library",
	"advisor": "ronnie",
	"day_of_week": "monday",
	"time_start": 1000,
	"time_end": 1600,
	"postcode": "SE6 4JU",
	"address": ["Catford Centre", "23-24 Winslade Way"],
	"latitude": 51.445868,
	"longitude": -0.020799
    },
    {
	"title": "Bellingham Green Surgery GP",
	"advisor": "omolara",
	"day_of_week": "tuesday",
	"time_start": 900,
	"time_end": 1400,
	"postcode": "SE6 3JB",
	"address": ["24 Bellingham Green"],
	"latitude": 51.430378,
	"longitude": -0.02426
    },
    {
	"title": "Rushey Green GP",
	"advisor": "maria",
	"day_of_week": "tuesday",
	"time_start": 1300,
	"time_end": 1400,
	"postcode": "SE6 4JH",
	"address": ["1st floor (upstairs)", "Hawstead Road"],
	"latitude": 51.449319,
	"longitude": -0.018045
    },
    {
	"title": "UHL Lewisham Hospital",
	"advisor": "shireen",
	"day_of_week": "tuesday",
	"time_start": 1200,
	"time_end": 1800,
	"postcode": "SE13 6LH",
	"address": [ "Room 7", "Suite 8", "Pink Zone", "1st Floor", "UHL Lewisham Hospital", "Lewisham High Street" ],
	"latitude": 51.454023,
	"longitude": -0.017942
    },
    {
	"title": "Downham Leisure Centre",
	"advisor": "omolara",
	"day_of_week": "tuesday",
	"time_start": 1500,
	"time_end": 1900,
	"postcode": "BR1 5EP",
	"address": ["7-9 Moorside Rd"],
	"latitude": 51.426849,
	"longitude": 0.00981
    },
    {
	"title": "Telephone",
	"advisor": "maria",
	"day_of_week": "wednesday",
	"time_start": 1000,
	"time_end": 1330,
	"postcode": "",
	"address": [],
	"latitude": 0,
	"longitude": 0
    },
    {
	"title": "South Lewisham GP",
	"advisor": "matt",
	"day_of_week": "wednesday",
	"time_start": 1300,
	"time_end": 1400,
	"postcode": "SE6 2SS",
	"address": ["50 Conisbrough Crescent"],
	"latitude": 51.429997,
	"longitude": -0.013458
    },
    {
	"title": "Deptford Library",
	"advisor": "ronnie",
	"day_of_week": "wednesday",
	"time_start": 1000,
	"time_end": 1600,
	"postcode": "SE8 4RJ",
	"address": ["Deptford Lounge", "9 Griffin Street"],
	"latitude": 51.477479,
	"longitude": -0.023593
    },
    {
	"title": "Jenner Health Centre GP",
	"advisor": "ronnie",
	"day_of_week": "wednesday",
	"time_start": 900,
	"time_end": 1700,
	"postcode": "SE23 1HU",
	"address": ["201 Stansted Road"],
	"latitude": 51.442387,
	"longitude": -0.041139
    },
    {
	"title": "Telephone",
	"advisor": "alison",
	"day_of_week": "wednesday",
	"time_start": 900,
	"time_end": 1100,
	"postcode": "",
	"address": [],
	"latitude": 0,
	"longitude": 0
    },
    {
	"title": "Burnt Ash Surgery GP",
	"advisor": "alison",
	"day_of_week": "wednesday",
	"time_start": 1200,
	"time_end": 1700,
	"postcode": "SE12 8NP",
	"address": ["Lee Health Centre", "2 Handen Road"],
	"latitude": 51.452782,
	"longitude": 0.009913
    },
    {
	"title": "Telephone",
	"advisor": "alison",
	"day_of_week": "thursday",
	"time_start": 1330,
	"time_end": 1700,
	"postcode": "",
	"address": [],
	"latitude": 0,
	"longitude": 0
    },
    {
	"title": "Wells Park Practice GP",
	"advisor": "maria",
	"day_of_week": "thursday",
	"time_start": 1330,
	"time_end": 1400,
	"postcode": "SE26 6JQ",
	"address": [""],
	"latitude": 51.430508,
	"longitude": -0.063327
    },
    {
	"title": "Downham Leisure Centre",
	"advisor": "omolara",
	"day_of_week": "thursday",
	"time_start": 930,
	"time_end": 1430,
	"postcode": "BR1 5EP",
	"address": ["7-9 Moorside Rd"],
	"latitude": 51.426054,
	"longitude": 0.012947
    },
    {
	"title": "Hilly Fields Medical Centre GP",
	"advisor": "ronnie",
	"day_of_week": "friday",
	"time_start": 800,
	"time_end": 1600,
	"postcode": "SE4 1JN",
	"address": ["172 Adelaide Avenue"],
	"latitude": 51.456803,
	"longitude": -0.024011
    },
    {
	"title": "Waldron Health Centre clinic",
	"advisor": "ronnie",
	"day_of_week": "thursday",
	"time_start": 1300,
	"time_end": 1800,
	"postcode": "SE14 6LD",
	"address": ["Room 201, next to Suite 7", "(at the top of the stairs, go left)", "2nd floor", "131 Amersham Vale"],
	"latitude": 51.476288,
	"longitude": -0.03191
    },
    {
	"title": "UHL Lewisham Hospital",
	"advisor": "maria",
	"day_of_week": "friday",
	"time_start": 1000,
	"time_end": 1600,
	"postcode": "SE13 6LH",
	"address": [ "Room 7", "Suite 8", "Pink Zone", "1st Floor", "Lewisham Hospital", "Lewisham High Street" ],
	"latitude": 51.453023,
	"longitude": -0.017942
    }
]
}
